bathrooms,bedrooms,city,country,currency,daysOnZillow,homeStatus,homeStatusForHDP,homeType,imgSrc,isFeatured,isNonOwnerOccupied,isPreforeclosureAuction,isPremierBuilder,isShowcaseListing,isUnmappable,isZillowOwned,latitude,livingArea,longitude,price,priceForHDP,rentZestimate,shouldHighlight,state,streetAddress,taxAssessedValue,timeOnZillow,unit,zestimate,zipcode,zpid,listing_sub_type.is_FSBA,lotAreaUnit,lotAreaValue,newConstructionType,listing_sub_type.is_newHome,datePriceChanged,priceChange,priceReduction,videoCount,openHouse,listing_sub_type.is_openHouse,open_house_info.open_house_showing,group_type,priceSuffix,providerListingID
2.0,2.0,Houston,USA,USD,0,FOR_SALE,FOR_SALE,CONDO,https://photos.zillowstatic.com/fp/15e77f595a8ebd65d49c1132260e05da-p_e.jpg,False,True,False,False,False,False,False,29.761908,1915.0,-95.46399,539900.0,539900.0,2727.0,False,TX,5001 Woodway Dr UNIT 901,409358.0,96000,Unit 901,448500.0,77056,28244729,True,,,,,,,,,,,,,,
0.0,,Houston,USA,USD,0,FOR_SALE,FOR_SALE,LOT,"https://maps.googleapis.com/maps/api/staticmap?mobile=false&sensor=true&maptype=satellite&size=575x242&zoom=17&center=29.585979461669922,-95.18531799316406&key=AIzaSyBJsNQO5ZeG-XAbqqWLKwG08fWITSxg33w&signature=t3Hd4Xw8qOY7mAliyG9efhbZRBo=",False,True,False,False,False,False,False,29.58598,,-95.18532,2900000.0,2900000.0,,False,TX,0 Fm 1959 Rd,,98000,,,77034,351475142,True,acres,14.95,,,,,,,,,,,,
4.0,3.0,Houston,USA,USD,0,FOR_SALE,FOR_SALE,SINGLE_FAMILY,https://photos.zillowstatic.com/fp/3f4648eeb471b0607815bb40ed6a0f09-p_e.jpg,False,True,False,False,True,False,False,29.739637,1793.0,-95.34413,455000.0,455000.0,1650.0,False,TX,3715 Bell St,238811.0,812000,,453900.0,77003,27769853,,sqft,1800.0,BUILDER_SPEC,True,,,,,,,,,,
2.0,2.0,Houston,USA,USD,0,FOR_SALE,FOR_SALE,CONDO,https://photos.zillowstatic.com/fp/f9dbc6ba34d64076e7238d5757b40ba7-p_e.jpg,False,True,False,False,False,False,False,29.729748,1422.0,-95.46603,359000.0,359000.0,2024.0,False,TX,3505 Sage Rd UNIT 2309,342239.0,932000,Unit 2309,,77056,62590881,True,,,,,1715065200000.0,-4000.0,"$4,000 (May 7)",1.0,,,,,,
5.0,3.0,Houston,USA,USD,0,FOR_SALE,FOR_SALE,SINGLE_FAMILY,https://photos.zillowstatic.com/fp/5648ac7c17d45a24cb40665aa5f09744-p_e.jpg,False,True,False,False,False,False,False,29.76489,3479.0,-95.55314,1679000.0,1679000.0,9674.0,False,TX,220 Morningside Park St,1568200.0,932000,,1682500.0,77024,243978341,True,sqft,2360.952,,,,,,,,,,,,
3.0,3.0,Houston,USA,USD,0,FOR_SALE,FOR_SALE,SINGLE_FAMILY,https://photos.zillowstatic.com/fp/c7a1970ddbf647d88e9849286dc61a52-p_e.jpg,False,True,False,False,False,False,False,29.812115,3377.0,-95.36569,580000.0,580000.0,4453.0,False,TX,418 Eleanor St,678272.0,1946000,,581500.0,77009,27875665,True,sqft,10598.148,,,,,,,,,,,,
4.0,4.0,Houston,USA,USD,0,FOR_SALE,FOR_SALE,SINGLE_FAMILY,https://photos.zillowstatic.com/fp/53699546c9be792f9c44bb2845887ad2-p_e.jpg,False,True,False,False,False,False,False,29.919928,4525.0,-95.18584,733000.0,733000.0,4002.0,False,TX,16119 Cottage Timbers Ct,655604.0,2305000,,731000.0,77044,161376662,True,acres,0.3153,,,1717398000000.0,-16000.0,"$16,000 (Jun 3)",,,,,,,
3.0,3.0,Houston,USA,USD,0,FOR_SALE,FOR_SALE,SINGLE_FAMILY,https://photos.zillowstatic.com/fp/52fc2ac24f5a616517b076b40ef2805c-p_e.jpg,False,True,False,False,False,False,False,29.978128,2400.0,-95.46201,249900.0,249900.0,2195.0,False,TX,13231 Barrow Point Ln,276079.0,2542000,,249600.0,77014,70309551,True,sqft,5710.716,,,,,,,,,,,,
3.0,4.0,Houston,USA,USD,0,FOR_SALE,FOR_SALE,SINGLE_FAMILY,https://photos.zillowstatic.com/fp/af830e6e98721ff3580a6e52f9bb01a4-p_e.jpg,False,True,False,False,False,False,False,29.636478,1800.0,-95.473595,285000.0,285000.0,2194.0,False,TX,12838 Colony Heath Ln,215277.0,3140000,,283400.0,77085,80577554,True,sqft,5174.928,,,1717398000000.0,-5000.0,"$5,000 (Jun 3)",,,,,,,
4.0,3.0,Houston,USA,USD,0,FOR_SALE,FOR_SALE,TOWNHOUSE,https://photos.zillowstatic.com/fp/f39596a0f9124cd1f68fba36d5a547c8-p_e.jpg,False,True,False,False,False,False,False,29.79181,2022.0,-95.43451,540000.0,540000.0,3350.0,False,TX,3328 W 12th St,529500.0,3725000,,540400.0,77008,126254748,True,sqft,1400.0,,,,,,,,,,,,
2.0,2.0,Houston,USA,USD,0,FOR_SALE,FOR_SALE,SINGLE_FAMILY,https://photos.zillowstatic.com/fp/1961e6c7d744299d5d9e5504b7415262-p_e.jpg,False,True,False,False,False,False,False,29.69811,1234.0,-95.35293,165000.0,165000.0,1625.0,False,TX,6124 Goforth St,139373.0,3965000,,163100.0,77021,27942170,True,sqft,5201.064,,,,,,,,,,,,
4.0,4.0,Kingwood,USA,USD,0,FOR_SALE,FOR_SALE,SINGLE_FAMILY,https://photos.zillowstatic.com/fp/20d1929a5e8013d521db90a850f47700-p_e.jpg,False,True,False,False,False,False,False,30.048569,3010.0,-95.17965,424900.0,424900.0,2875.0,False,TX,2752 Kings Retreat Cir,397227.0,6117000,,425300.0,77345,123239280,True,sqft,2034.252,,,,,,,Sun. 1-3pm,True,"[{'open_house_end': 1717970400000, 'open_house_start': 1717963200000}]",,,
2.0,4.0,Houston,USA,USD,0,FOR_SALE,FOR_SALE,SINGLE_FAMILY,https://photos.zillowstatic.com/fp/143040e28e099154b3aff187bdba4413-p_e.jpg,False,True,False,False,False,False,False,29.593416,2037.0,-95.13862,365000.0,365000.0,2299.0,False,TX,2410 Jasmine Ridge Ct,343994.0,7310000,,365700.0,77062,28538892,True,sqft,6324.912,,,,,,,,,,,,
3.0,2.0,Houston,USA,USD,0,FOR_SALE,FOR_SALE,CONDO,https://photos.zillowstatic.com/fp/d5d584d38b5030def83ffe86853307a8-p_e.jpg,False,True,False,False,False,False,False,29.721062,2564.0,-95.41751,600000.0,600000.0,3882.0,False,TX,2520 Robinhood St APT 1009,478418.0,13838000,Apt 1009,610800.0,77005,62591040,True,,,,,,,,,,,,,,
2.0,3.0,Houston,USA,USD,0,FOR_SALE,FOR_SALE,SINGLE_FAMILY,https://photos.zillowstatic.com/fp/3c372aa1b15739f2a9556ce8f5d107f1-p_e.jpg,False,True,False,False,False,False,False,29.895647,1492.0,-95.51238,275000.0,275000.0,1849.0,False,TX,7934 Woodland Pine Dr,270957.0,14464000,,275400.0,77040,70310272,True,sqft,7501.032,,,,,,,,,,,,
3.0,3.0,Houston,USA,USD,0,FOR_SALE,FOR_SALE,SINGLE_FAMILY,https://photos.zillowstatic.com/fp/77d26e57b22892f8d3f5da13bf69250b-p_e.jpg,False,True,False,False,False,False,False,29.682163,1800.0,-95.5533,272000.0,272000.0,1800.0,False,TX,9339 Eagle Creek Ln,236755.0,26592000,,271800.0,77036,28316743,True,sqft,6525.288,,,,,,,,,,,,
3.0,5.0,Houston,USA,USD,0,FOR_SALE,FOR_SALE,SINGLE_FAMILY,https://photos.zillowstatic.com/fp/9f5653c3aa23e090e2101b7bae8967f3-p_e.jpg,False,True,False,False,False,False,False,29.945765,3100.0,-95.594734,550000.0,550000.0,2999.0,False,TX,12303 Mile Dr,403975.0,29462000,,551500.0,77065,28043174,True,acres,0.6599999999999999,,,,,,,,,,,,
2.0,4.0,Houston,USA,USD,0,FOR_SALE,FOR_SALE,SINGLE_FAMILY,https://photos.zillowstatic.com/fp/a2620bb32a7315e0dbbea1236057a472-p_e.jpg,False,True,False,False,False,False,False,29.782543,1800.0,-95.18191,210000.0,210000.0,1825.0,False,TX,13710 Corpus Christi St,119015.0,30059000,,209400.0,77015,27867964,True,sqft,5248.98,,,,,,,,,,,,
3.0,4.0,Houston,USA,USD,0,FOR_SALE,FOR_SALE,SINGLE_FAMILY,https://photos.zillowstatic.com/fp/29c69c1b14cd8fe9374d7a69fe99c650-p_e.jpg,False,True,False,False,False,False,False,30.008402,2520.0,-95.44178,249500.0,249500.0,2325.0,False,TX,1011 Larks Trace Ln,280619.0,30775000,,249900.0,77090,118399383,True,sqft,3868.128,,,,,,,,,,,,
3.0,3.0,Houston,USA,USD,0,FOR_SALE,FOR_SALE,SINGLE_FAMILY,https://photos.zillowstatic.com/fp/c96a74555a388641f4f6c2a1a5375cb3-p_e.jpg,False,True,False,False,False,False,False,29.874828,2157.0,-95.667046,350000.0,350000.0,2100.0,False,TX,17007 Chason Ct,300788.0,32806000,,352200.0,77084,62566110,True,sqft,5079.096,,,,,,,,,,,,
2.0,2.0,Houston,USA,USD,0,FOR_SALE,FOR_SALE,CONDO,https://photos.zillowstatic.com/fp/821a49c7faff727543a8c41c9df353a2-p_e.jpg,False,True,False,False,False,False,False,29.710058,1032.0,-95.489494,79900.0,79900.0,1494.0,False,TX,6500 Rampart St APT 36,37315.0,34235000,Apt 36,79500.0,77081,28302252,True,acres,1.5808,,,,,,,,,,,,
2.0,3.0,Houston,USA,USD,0,FOR_SALE,FOR_SALE,SINGLE_FAMILY,https://photos.zillowstatic.com/fp/29a623bf59681c9a6dc09467e5072bf3-p_e.jpg,False,True,False,False,False,False,False,29.876,1772.0,-95.66305,248000.0,248000.0,1849.0,False,TX,16722 Britford,216295.0,36510000,,249900.0,77084,28337564,True,sqft,5797.836,,,,,,,,,,,,
2.0,2.0,Houston,USA,USD,0,FOR_SALE,FOR_SALE,CONDO,https://photos.zillowstatic.com/fp/45475287c68c5fd10135986bd84d0bb0-p_e.jpg,False,True,False,False,False,False,False,29.73948,1224.0,-95.49785,137500.0,137500.0,807.0,False,TX,6405 Ella Lee Ln,113608.0,37936000,,136700.0,77057,28294283,True,acres,6.4135,,,1717225200000.0,-2400.0,"$2,400 (Jun 1)",,,,,,,
0.0,,Houston,USA,USD,0,FOR_SALE,FOR_SALE,LOT,https://photos.zillowstatic.com/fp/2eaa58cedbe2ce205bc209b39ce4cfd5-p_e.jpg,False,True,False,False,False,False,False,29.798437,,-95.36174,260000.0,260000.0,1500.0,False,TX,4202 Billingsley St,215875.0,39608000,,,77009,27763704,True,sqft,5501.628,,,1696230000000.0,-20000.0,,,,,,,,
2.0,4.0,Houston,USA,USD,0,FOR_SALE,FOR_SALE,SINGLE_FAMILY,https://photos.zillowstatic.com/fp/7af9911eee5144d3e57ec0e2f24612e3-p_e.jpg,False,True,False,False,False,False,False,29.786701,1444.0,-95.325165,165000.0,165000.0,1949.0,False,TX,2811 Amboy St,154588.0,39609000,,163300.0,77026,27811750,True,sqft,5000.688,,,,,,,,,,,,
2.0,2.0,Houston,USA,USD,0,FOR_SALE,FOR_SALE,CONDO,https://photos.zillowstatic.com/fp/ba0a478abca478ada9009a6160f83de7-p_e.jpg,False,True,False,False,False,False,False,29.560856,1010.0,-95.11377,128000.0,128000.0,1797.0,False,TX,1500 Bay Area Blvd #104,122979.0,39609000,# 104,126000.0,77058,28350424,True,acres,8.4944,,,,,,,,,,,,
2.0,3.0,Houston,USA,USD,0,FOR_SALE,FOR_SALE,SINGLE_FAMILY,"https://maps.googleapis.com/maps/api/staticmap?mobile=false&sensor=true&maptype=satellite&size=575x242&zoom=17&center=29.88212013244629,-95.45027923583984&key=AIzaSyBJsNQO5ZeG-XAbqqWLKwG08fWITSxg33w&signature=brGQq1-WognjTmCZcYsuhNddzos=",False,True,False,False,False,False,False,29.88212,1420.0,-95.45028,380000.0,380000.0,2081.0,False,TX,2722 Vega St,280811.0,40546000,,379300.0,77088,28116029,True,acres,0.3495,,,,,,,,,,,,
4.0,3.0,Houston,USA,USD,0,FOR_SALE,FOR_SALE,SINGLE_FAMILY,https://photos.zillowstatic.com/fp/de4b7345ebd013547e9c96bb56441a06-p_e.jpg,False,True,False,True,False,False,False,29.785189,2443.0,-95.44188,664990.0,664990.0,3902.0,False,TX,"Milan Plan, Somerset Green",,40729000,# PRJCCU,665600.0,77055,2058164565,,,,BUILDER_PLAN,True,1707984000000.0,5000.0,,,,,,BUILDER_COMMUNITY,+,9312
2.0,3.0,Humble,USA,USD,0,FOR_SALE,FOR_SALE,SINGLE_FAMILY,https://photos.zillowstatic.com/fp/9579971e8c3433a354318f28ad0e6948-p_e.jpg,False,True,False,False,False,False,False,30.045513,1989.0,-95.23258,289000.0,289000.0,1999.0,False,TX,1519 Sandy Park Dr,330559.0,41022000,,,77339,28524051,True,sqft,7130.772,,,,,,,,,,,,
0.0,0.0,Houston,USA,USD,0,FOR_SALE,FOR_SALE,SINGLE_FAMILY,https://photos.zillowstatic.com/fp/918468f9cc7c61c081d4ef50aa844754-p_e.jpg,False,True,False,False,False,False,False,29.73508,3168.0,-95.36121,675000.0,675000.0,1300.0,False,TX,2615 Tuam St,364987.0,43344000,,,77004,27758391,True,sqft,10001.376,,,,,,,,,,,,
0.0,,Houston,USA,USD,0,FOR_SALE,FOR_SALE,LOT,https://photos.zillowstatic.com/fp/35393a02f7544b54c0383195118be084-p_e.jpg,False,True,False,False,False,False,False,29.858961,,-95.5714,88000.0,88000.0,1379.0,False,TX,11019 Melba Ln,63423.0,45379000,,,77041,160443166,True,sqft,8102.16,,,,,,,,,,,,
2.0,4.0,Houston,USA,USD,0,FOR_SALE,FOR_SALE,SINGLE_FAMILY,https://photos.zillowstatic.com/fp/a1493c39af7a84708301ac75f106aaa1-p_e.jpg,False,True,False,False,False,False,False,29.704187,1725.0,-95.36474,395000.0,395000.0,1994.0,False,TX,3539 Tampa St,248460.0,45620000,,394100.0,77021,27920302,True,sqft,5823.972,,,,,,,,,,,,
3.0,4.0,Houston,USA,USD,0,FOR_SALE,FOR_SALE,SINGLE_FAMILY,https://photos.zillowstatic.com/fp/c1cfd4e9565a76214a988209b3c29885-p_e.jpg,False,True,False,False,False,False,False,29.8607,1640.0,-95.57236,260000.0,260000.0,1999.0,False,TX,11039 Cedarview Ln,205486.0,45858000,,262700.0,77041,28036839,True,sqft,7801.596,,,1717398000000.0,-10000.0,"$10,000 (Jun 3)",,,,,,,
1.0,2.0,Houston,USA,USD,0,FOR_SALE,FOR_SALE,MULTI_FAMILY,https://photos.zillowstatic.com/fp/0bd64fbc4f03c00633558aa8f65b2678-p_e.jpg,False,True,False,False,False,False,False,29.80674,2793.0,-95.38999,760000.0,760000.0,1012.0,False,TX,704 E 22nd St APT 4,598203.0,46097000,Apt 4,,77008,27753583,True,sqft,5000.0,,,,,,,,,,,,
2.0,2.0,Houston,USA,USD,0,FOR_SALE,FOR_SALE,CONDO,"https://maps.googleapis.com/maps/api/staticmap?mobile=false&sensor=true&maptype=satellite&size=575x242&zoom=17&center=29.560855865478516,-95.11376953125&key=AIzaSyBJsNQO5ZeG-XAbqqWLKwG08fWITSxg33w&signature=fyePRBfYBQgt8HWnsf6zNu7xId8=",False,True,False,False,False,False,False,29.560856,970.0,-95.11377,113900.0,113900.0,675.0,False,TX,1500 Bay Area Blvd #337,112362.0,47052000,# 337,111900.0,77058,28350646,True,acres,8.4944,,,,,,,,,,,,
2.0,3.0,Houston,USA,USD,0,FOR_SALE,FOR_SALE,SINGLE_FAMILY,https://photos.zillowstatic.com/fp/6b16b7c34a8d663fbf05c32a0403ba9f-p_e.jpg,False,True,False,False,False,False,False,29.95985,1471.0,-95.45614,220000.0,220000.0,1650.0,False,TX,2462 Kenbridge Dr,211072.0,47293000,,220200.0,77067,28444723,True,sqft,5501.628,,,,,,,,,,,,
2.0,3.0,Houston,USA,USD,0,FOR_SALE,FOR_SALE,SINGLE_FAMILY,https://photos.zillowstatic.com/fp/0ca25c06504891d9772437a652dfb30b-p_e.jpg,False,True,False,False,False,False,False,29.606007,1688.0,-95.36752,290000.0,290000.0,1900.0,False,TX,14006 Brunswick Place Dr,286083.0,47650000,,291300.0,77047,124873884,True,sqft,5013.756,,,,,,,,,,,,
2.0,2.0,Houston,USA,USD,0,FOR_SALE,FOR_SALE,TOWNHOUSE,"https://maps.googleapis.com/maps/api/staticmap?mobile=false&sensor=true&maptype=satellite&size=575x242&zoom=17&center=29.696657180786133,-95.60558319091797&key=AIzaSyBJsNQO5ZeG-XAbqqWLKwG08fWITSxg33w&signature=yk8IYASfEMkd0EbVSNatgImlKpY=",False,True,False,False,False,False,False,29.696657,1550.0,-95.60558,219800.0,219800.0,1293.0,False,TX,12803 Carvel Ln,195493.0,48721000,,218300.0,77072,28203022,True,sqft,2318.0,,,,,,,,,,,,
3.0,3.0,Houston,USA,USD,0,FOR_SALE,FOR_SALE,SINGLE_FAMILY,https://photos.zillowstatic.com/fp/1003fb65965e19598152d84b4880a283-p_e.jpg,False,True,False,False,False,False,False,29.846851,1525.0,-95.44742,340000.0,340000.0,2400.0,False,TX,2504 W Tidwell Rd #B,341399.0,48842000,# B,339500.0,77091,338058708,True,sqft,1995.048,,,,,,,,,,,,
0.0,,Houston,USA,USD,0,FOR_SALE,FOR_SALE,LOT,https://photos.zillowstatic.com/fp/e5a3cce4146f5a19946958ac640a8f07-p_e.jpg,False,True,False,False,False,False,False,29.623407,,-95.36264,109000.0,109000.0,,False,TX,12827 Leitrim Way,,50159000,,,77047,351467783,True,sqft,8163.144,,,,,,,,,,,,
3.0,3.0,Houston,USA,USD,0,FOR_SALE,FOR_SALE,SINGLE_FAMILY,https://photos.zillowstatic.com/fp/da06b120d15662c8b580a518d3fbcd2a-p_e.jpg,False,True,False,False,False,False,False,30.02705,1553.0,-95.39872,262810.0,262810.0,,False,TX,21326 Northern Light Dr,,50398000,,262400.0,77073,348977005,,,,BUILDER_SPEC,True,,,,,,,,,,
1.0,1.0,Houston,USA,USD,-1,FOR_SALE,FOR_SALE,CONDO,https://photos.zillowstatic.com/fp/cadc4ec0731d83281c146ed2fac38aeb-p_e.jpg,False,True,False,False,False,False,False,29.700352,702.0,-95.56567,100000.0,100000.0,1194.0,False,TX,10555 Turtlewood Ct UNIT 2614,86712.0,51108000,Unit 2614,98400.0,77072,28393519,True,acres,3.4947,,,,,,,,,,,,
2.0,4.0,Houston,USA,USD,-1,FOR_SALE,FOR_SALE,SINGLE_FAMILY,https://photos.zillowstatic.com/fp/21286226f93518af7c3822daa6d1f960-p_e.jpg,False,True,False,False,False,False,False,30.02705,1735.0,-95.39872,265350.0,265350.0,,False,TX,21227 Memorial Vista Dr,,51227000,,264600.0,77073,350423411,,,,BUILDER_SPEC,True,,,,,,,,,,
2.0,3.0,Houston,USA,USD,-1,FOR_SALE,FOR_SALE,SINGLE_FAMILY,https://photos.zillowstatic.com/fp/ba34d62ffe0fda00cfe477bf3a1a27af-p_e.jpg,False,True,False,False,False,False,False,30.02705,1466.0,-95.39872,251530.0,251530.0,,False,TX,21218 Memorial Vista Dr,,51705000,,250900.0,77073,348977007,,,,BUILDER_SPEC,True,,,,,,,,,,
2.0,4.0,Houston,USA,USD,-1,FOR_SALE,FOR_SALE,SINGLE_FAMILY,"https://maps.googleapis.com/maps/api/staticmap?mobile=false&sensor=true&maptype=satellite&size=575x242&zoom=17&center=29.711742401123047,-95.59454345703125&key=AIzaSyBJsNQO5ZeG-XAbqqWLKwG08fWITSxg33w&signature=KNhRmr_Y8yXl6kN8-0RpIlfO1pg=",False,True,False,False,False,False,False,29.711742,2000.0,-95.59454,455000.0,455000.0,2100.0,False,TX,4224 D St,459022.0,51825000,,453700.0,77072,27748134,True,acres,0.3306,,,,,,,,,,,,
2.0,3.0,Houston,USA,USD,-1,FOR_SALE,FOR_SALE,SINGLE_FAMILY,https://photos.zillowstatic.com/fp/ae67d2eedea11f705cdbd056cbcdb5e8-p_e.jpg,False,True,False,False,False,False,False,30.02705,1373.0,-95.39872,244780.0,244780.0,,False,TX,21226 Memorial Vista Dr,,52063000,,244100.0,77073,348977024,,,,BUILDER_SPEC,True,,,,,,,,,,
2.0,4.0,Houston,USA,USD,-1,FOR_SALE,FOR_SALE,SINGLE_FAMILY,"https://maps.googleapis.com/maps/api/staticmap?mobile=false&sensor=true&maptype=satellite&size=575x242&zoom=17&center=29.68700408935547,-95.51737976074219&key=AIzaSyBJsNQO5ZeG-XAbqqWLKwG08fWITSxg33w&signature=nfrP2eilt6dcBxAejxovKFJQkbw=",False,True,False,False,False,False,False,29.687004,1677.0,-95.51738,329000.0,329000.0,1949.0,False,TX,8411 Braeburn Valley Dr,264333.0,52542000,,329200.0,77074,28063755,True,sqft,7801.596,,,,,,,,,,,,
0.0,,Houston,USA,USD,-1,FOR_SALE,FOR_SALE,LOT,https://photos.zillowstatic.com/fp/5ae3d9ce75cf87821d459682bcdea8cc-p_e.jpg,False,True,False,False,False,False,False,29.684946,,-95.3593,115000.0,115000.0,1394.0,False,TX,4210 Dreyfus St,99501.0,54731000,,135900.0,77021,27779796,True,sqft,5074.74,,,,,,,,,,,,
3.0,3.0,Houston,USA,USD,-1,FOR_SALE,FOR_SALE,SINGLE_FAMILY,https://photos.zillowstatic.com/fp/0281cc054a19b0df5f2060a2605469dd-p_e.jpg,False,True,False,False,False,False,False,29.831854,1585.0,-95.34804,299000.0,299000.0,2450.0,False,TX,2402 Mann St #B,,54734000,# B,297500.0,77093,340015680,,sqft,3144.0,BUILDER_SPEC,True,1717311600000.0,-990.0,$990 (Jun 2),,Sun. 1-4pm,True,"[{'open_house_end': 1717974000000, 'open_house_start': 1717963200000}]",,,
4.0,3.0,Houston,USA,USD,-1,FOR_SALE,FOR_SALE,SINGLE_FAMILY,https://photos.zillowstatic.com/fp/a51b971deb5ab7c04ff3f9cf5955bc46-p_e.jpg,False,True,False,False,False,False,False,29.832829,1832.0,-95.40445,379990.0,379990.0,2594.0,False,TX,4705 Thornton Villas Ln,,55095000,,379600.0,77018,344947369,,sqft,1333.0,BUILDER_SPEC,True,1711350000000.0,-10000.0,"$10,000 (Mar 25)",,,,,,,
4.0,3.0,Houston,USA,USD,-1,FOR_SALE,FOR_SALE,SINGLE_FAMILY,https://photos.zillowstatic.com/fp/0944025a06ad41f7da4642a288d44663-p_e.jpg,False,True,False,False,False,False,False,29.832733,1832.0,-95.40445,389990.0,389990.0,2594.0,False,TX,4703 Thornton Villas Ln,,55454000,,389600.0,77018,340069457,,sqft,1333.0,BUILDER_SPEC,True,1717311600000.0,-10000.0,"$10,000 (Jun 2)",,,,,,,
2.0,3.0,Houston,USA,USD,-1,FOR_SALE,FOR_SALE,SINGLE_FAMILY,https://photos.zillowstatic.com/fp/dbae08b5a72313747aeaf1758f5c0c75-p_e.jpg,False,True,False,False,False,False,False,29.7918,1132.0,-95.372314,440000.0,440000.0,2350.0,False,TX,502 Dell Ct,457766.0,57238000,,450100.0,77009,126251351,True,sqft,4260.168,,,1714374000000.0,11000.0,,,,,,,,
2.0,3.0,Houston,USA,USD,-1,FOR_SALE,FOR_SALE,MULTI_FAMILY,https://photos.zillowstatic.com/fp/8899c26a8e93741f2f4cc313022a75a5-p_e.jpg,False,True,False,False,False,False,False,29.727589,1415.0,-95.65162,239000.0,239000.0,1798.0,False,TX,14967 Atmore Place Dr,207475.0,58315000,,238100.0,77082,80520862,True,sqft,2604.0,,,1714892400000.0,-5000.0,"$5,000 (May 5)",,,,,,,
3.0,4.0,Houston,USA,USD,-1,FOR_SALE,FOR_SALE,SINGLE_FAMILY,https://photos.zillowstatic.com/fp/ab8cb0813c42746ff9fdc73e8c36b244-p_e.jpg,False,True,False,False,False,False,False,29.993355,1635.0,-95.50804,269000.0,269000.0,1875.0,False,TX,14518 Sweet Cherry Dr,256474.0,58792000,,267900.0,77069,338059386,True,sqft,4369.068,,,,,,,,,,,,
3.0,3.0,Houston,USA,USD,-1,FOR_SALE,FOR_SALE,CONDO,https://photos.zillowstatic.com/fp/77b723ad4163a8a00400a5b0c87cfc97-p_e.jpg,False,True,False,False,False,False,False,29.754023,2903.0,-95.45047,750000.0,750000.0,5035.0,False,TX,49 Briar Hollow Ln UNIT 2103,826881.0,60970000,Unit 2103,750000.0,77027,28424998,True,,,,,1716793200000.0,-50000.0,"$50,000 (May 27)",,,,,,,
2.0,2.0,Houston,USA,USD,-1,FOR_SALE,FOR_SALE,CONDO,https://photos.zillowstatic.com/fp/dfa59d163efbeaccb150f95735c57934-p_e.jpg,False,True,False,False,False,False,False,29.792772,1204.0,-95.478516,195000.0,195000.0,1550.0,False,TX,1311 Antoine Dr APT 258,211973.0,61442000,Apt 258,196800.0,77055,28442026,True,acres,2.0268,,,1717311600000.0,-5000.0,"$5,000 (Jun 2)",,,,,,,
3.0,2.0,Houston,USA,USD,-1,FOR_SALE,FOR_SALE,TOWNHOUSE,https://photos.zillowstatic.com/fp/3ebd48ddb4e43aa16cba4871df574bf6-p_e.jpg,False,True,False,False,False,False,False,29.697668,1938.0,-95.37763,325000.0,325000.0,2288.0,False,TX,6935 Ardmore St,330853.0,63234000,,323900.0,77054,97671770,True,sqft,1483.0,,,,,,,,,,,,
1.0,1.0,Houston,USA,USD,-1,FOR_SALE,FOR_SALE,CONDO,https://photos.zillowstatic.com/fp/5266dc4c9e943b1937fdd3087a57c2b8-p_e.jpg,False,True,False,False,False,False,False,29.731544,590.0,-95.56668,96000.0,96000.0,1019.0,False,TX,10855 Meadowglen Ln APT 1101,77654.0,64435000,Apt 1101,95000.0,77042,28422127,True,acres,2.279,,,,,,,,,,,,
3.0,3.0,Houston,USA,USD,-1,FOR_SALE,FOR_SALE,SINGLE_FAMILY,https://photos.zillowstatic.com/fp/45d175ed10e3b7e280990582a4b1f838-p_e.jpg,False,True,False,False,False,False,False,29.864601,2065.0,-95.20363,259000.0,259000.0,1949.0,False,TX,12811 Windy Summer Ln,238885.0,65031000,,258400.0,77044,84038248,True,sqft,4630.428,,,,,,,,,,,,
3.0,3.0,Houston,USA,USD,-1,FOR_SALE,FOR_SALE,SINGLE_FAMILY,https://photos.zillowstatic.com/fp/d103581d1bd602f6bcb3f0236f54e76d-p_e.jpg,False,True,False,False,False,False,False,29.829945,1645.0,-95.3968,339990.0,339990.0,1709.0,False,TX,227 Noras Ln,10950.0,66938000,,,77022,27878114,,sqft,1729.332,BUILDER_SPEC,True,,,,,,,,,,
2.0,3.0,Houston,USA,USD,-1,FOR_SALE,FOR_SALE,SINGLE_FAMILY,https://photos.zillowstatic.com/fp/f3666fcf5eed5275db0a1e2c017051bb-p_e.jpg,False,True,False,False,False,False,False,29.654985,1854.0,-95.36979,269900.0,269900.0,2299.0,False,TX,3623 Rockingham St,294859.0,66938000,,268900.0,77051,97624857,True,sqft,7000.092,,,,,,,,,,,,
3.0,2.0,Houston,USA,USD,-1,FOR_SALE,FOR_SALE,TOWNHOUSE,https://photos.zillowstatic.com/fp/338d9e284b194ffb47bd31a4d99d43db-p_e.jpg,False,True,False,False,False,False,False,29.745598,2170.0,-95.50278,650000.0,650000.0,2798.0,False,TX,7602 Del Monte Dr,557314.0,68154000,,647300.0,77063,28106151,True,sqft,2287.0,,,,,,,,,,,,
3.0,2.0,Houston,USA,USD,-1,FOR_SALE,FOR_SALE,TOWNHOUSE,https://photos.zillowstatic.com/fp/1a5a93212ab941ce5eeabc214aa5fdeb-p_e.jpg,False,True,False,False,False,False,False,29.879345,1646.0,-95.47627,179000.0,179000.0,1749.0,False,TX,7838 Challie Ln,193562.0,70308000,,177600.0,77088,28194475,True,sqft,3445.0,,,,,,,,,,,,
3.0,4.0,Houston,USA,USD,-1,FOR_SALE,FOR_SALE,SINGLE_FAMILY,https://photos.zillowstatic.com/fp/91aac3d4235333eaab6cecdcb11e58de-p_e.jpg,False,True,False,False,False,False,False,29.807129,2428.0,-95.14024,199000.0,199000.0,2199.0,False,TX,1715 Mickle Creek Dr,295786.0,70906000,,200400.0,77049,84059422,True,sqft,4948.416,,,,,,,,,,,,
2.0,3.0,Houston,USA,USD,-1,FOR_SALE,FOR_SALE,SINGLE_FAMILY,https://photos.zillowstatic.com/fp/e9569ec08bcd9a87112a5ab776015e8f-p_e.jpg,False,True,False,False,False,False,False,29.642387,1367.0,-95.488655,299900.0,299900.0,1729.0,False,TX,5741 Alvarado Dr,274562.0,72218000,,300600.0,77035,28048280,True,sqft,8398.368,,,,,,,,,,,,
5.0,5.0,Houston,USA,USD,-1,FOR_SALE,FOR_SALE,SINGLE_FAMILY,https://photos.zillowstatic.com/fp/3f39d68e261b1f391559285cc559dcbf-p_e.jpg,False,True,False,False,False,False,False,29.749666,3300.0,-95.47682,1020000.0,1020000.0,6306.0,False,TX,5667 San Felipe St,663453.0,74377000,,1017800.0,77056,27963871,True,acres,0.33149999999999996,,,1715324400000.0,-30000.0,"$30,000 (May 10)",,,,,,,
2.0,3.0,Houston,USA,USD,-1,FOR_SALE,FOR_SALE,SINGLE_FAMILY,https://photos.zillowstatic.com/fp/42f3692ea1776b9b86f89f8a5322c52f-p_e.jpg,False,True,False,True,False,False,False,29.85213,1167.0,-95.24491,229990.0,229990.0,1371.0,False,TX,"Pine Plan, Robins Landing",,75939000,# 63AGEW,228100.0,77078,2060004695,,,,BUILDER_PLAN,True,1682665200000.0,-38000.0,,,,,,BUILDER_COMMUNITY,+,29938757
6.0,4.0,Houston,USA,USD,-1,FOR_SALE,FOR_SALE,SINGLE_FAMILY,https://photos.zillowstatic.com/fp/cf98001e0006eec73e49718f33514d45-p_e.jpg,False,True,False,False,False,False,False,29.807219,3381.0,-95.40025,1199990.0,1199990.0,7769.0,False,TX,219 W 23rd St,,76751000,,1199400.0,77008,345359129,,sqft,3275.712,BUILDER_SPEC,True,1717311600000.0,-90010.0,"$90,010 (Jun 2)",,,,,,,
2.0,3.0,Houston,USA,USD,-1,FOR_SALE,FOR_SALE,SINGLE_FAMILY,"https://maps.googleapis.com/maps/api/staticmap?mobile=false&sensor=true&maptype=satellite&size=575x242&zoom=17&center=29.813615798950195,-95.28646087646484&key=AIzaSyBJsNQO5ZeG-XAbqqWLKwG08fWITSxg33w&signature=7WGAp7H2WWd4l8nEejFn7Yhs4Rw=",False,True,False,False,False,False,False,29.813616,1645.0,-95.28646,236936.0,236936.0,1180.0,False,TX,7806 Sandy St,151724.0,76871000,,238600.0,77028,27774726,True,sqft,6120.18,,,,,,,,,,,,
6.0,4.0,Houston,USA,USD,-1,FOR_SALE,FOR_SALE,SINGLE_FAMILY,https://photos.zillowstatic.com/fp/5a789ba9ab06740d596ffa24c24bd043-p_e.jpg,False,True,False,False,False,False,False,29.807384,3381.0,-95.40031,1199990.0,1199990.0,7755.0,False,TX,221 W 23rd St,305600.0,76990000,,1198600.0,77008,27759274,,sqft,3275.712,BUILDER_SPEC,True,1717311600000.0,-90010.0,"$90,010 (Jun 2)",,,,,,,
0.0,,Houston,USA,USD,-1,FOR_SALE,FOR_SALE,LOT,https://photos.zillowstatic.com/fp/bb27352521215796dce241a7661c8c42-p_e.jpg,False,True,False,False,False,False,False,29.771095,,-95.33433,169000.0,169000.0,1099.0,False,TX,0 Moses St,,77946000,,,77020,2089917233,True,sqft,5000.688,,,,,,,,,,,,
2.0,4.0,Houston,USA,USD,-1,FOR_SALE,FOR_SALE,SINGLE_FAMILY,https://photos.zillowstatic.com/fp/a08b2ad51f3bf78f51e20c8b88633413-p_e.jpg,False,True,False,False,False,False,False,29.65293,,-95.37396,250000.0,250000.0,1400.0,False,TX,9518 Fairland Dr,138490.0,78185000,,95400.0,77051,27991776,True,,,,,,,,,,,,,,
0.0,,Houston,USA,USD,-1,FOR_SALE,FOR_SALE,LOT,https://photos.zillowstatic.com/fp/f1654fc65a2c5722940ce9531521aa7a-p_e.jpg,False,True,False,False,False,False,False,29.776249,,-95.34599,480000.0,480000.0,1200.0,False,TX,1615 West St,180000.0,78303000,,,77026,27752739,True,sqft,10001.376,,,,,,,,,,,,
2.0,2.0,Houston,USA,USD,-1,FOR_SALE,FOR_SALE,SINGLE_FAMILY,https://photos.zillowstatic.com/fp/9aa7ce95b434258c509db57931743fc7-p_e.jpg,False,True,False,False,False,False,False,29.747812,1540.0,-95.392555,750000.0,750000.0,3350.0,False,TX,2405 Yoakum Blvd,638682.0,78304000,,748700.0,77006,27756759,True,sqft,5649.732,,,,,,,,,,,,
0.0,,Houston,USA,USD,-1,FOR_SALE,FOR_SALE,LOT,"https://maps.googleapis.com/maps/api/staticmap?mobile=false&sensor=true&maptype=satellite&size=575x242&zoom=17&center=29.76926040649414,-95.47245788574219&key=AIzaSyBJsNQO5ZeG-XAbqqWLKwG08fWITSxg33w&signature=cohVVd46QMA3MxkhO8ffzdgYH9M=",False,True,False,False,False,False,False,29.76926,,-95.47246,1595000.0,1595000.0,7679.0,False,TX,5466 Briar Dr,1300000.0,80318000,,1256900.0,77056,27890906,True,acres,0.5985,,,,,,,,,,,,
2.0,4.0,Houston,USA,USD,-1,FOR_SALE,FOR_SALE,SINGLE_FAMILY,https://photos.zillowstatic.com/fp/a24aa4537e3ec46700ca9cb06087ad32-p_e.jpg,False,True,False,False,False,False,False,29.864964,1277.0,-95.29692,210000.0,210000.0,1550.0,False,TX,7339 Orlando St,126426.0,81777000,,,77016,27995974,True,acres,0.2804,,,1716966000000.0,-5000.0,"$5,000 (May 29)",,,,,,,
0.0,,Houston,USA,USD,-1,FOR_SALE,FOR_SALE,LOT,https://photos.zillowstatic.com/fp/e20a4c16d81ba31939fb68adcaaa7c01-p_e.jpg,False,True,False,False,False,False,False,29.886969,,-95.15027,850000.0,850000.0,1499.0,False,TX,15015 Garrett Rd TRAILER 2,206830.0,82612000,Trailer 2,299700.0,77044,27810577,True,acres,4.8656,,,,,,,,,,,,
5.0,6.0,Houston,USA,USD,-1,FOR_SALE,FOR_SALE,SINGLE_FAMILY,https://photos.zillowstatic.com/fp/113d5b13598fed91652a4d48bd92d304-p_e.jpg,False,True,False,False,False,False,False,29.650663,4666.0,-95.51145,875000.0,875000.0,4900.0,False,TX,11815 Stallion Ln,591764.0,82614000,,871700.0,77071,28276426,True,sqft,9430.74,,,,,,,,,,,,
2.0,2.0,Houston,USA,USD,-1,FOR_SALE,FOR_SALE,TOWNHOUSE,https://photos.zillowstatic.com/fp/b3c1974d2a8b0308fa9e3a7d4023cb23-p_e.jpg,False,True,False,False,False,False,False,29.738039,1092.0,-95.611824,185000.0,185000.0,1074.0,False,TX,2379 Briarwest Blvd UNIT 24,169435.0,84760000,Unit 24,185800.0,77077,28223493,True,,,,,,,,,,,,,,
3.0,4.0,Houston,USA,USD,-1,FOR_SALE,FOR_SALE,TOWNHOUSE,"https://maps.googleapis.com/maps/api/staticmap?mobile=false&sensor=true&maptype=satellite&size=575x242&zoom=17&center=29.76399803161621,-95.41995239257812&key=AIzaSyBJsNQO5ZeG-XAbqqWLKwG08fWITSxg33w&signature=ZamryZwAl5uqRVGJ-21w81Vw9uU=",False,True,False,False,False,False,False,29.763998,2691.0,-95.41995,594000.0,594000.0,3394.0,False,TX,226 Birdsall St,595987.0,85467000,,597900.0,77007,58668042,True,sqft,2500.0,,,,,,,,,,,,
3.0,3.0,Houston,USA,USD,-1,FOR_SALE,FOR_SALE,SINGLE_FAMILY,https://photos.zillowstatic.com/fp/812b8d120386bd5d74311e84a269bf4a-p_e.jpg,False,True,False,False,False,False,False,29.5981,1913.0,-95.40443,324990.0,324990.0,,False,TX,13421 Sombrero Cay Dr,,88808000,,324900.0,77047,350437550,,sqft,2700.0,BUILDER_SPEC,True,1716879600000.0,-17000.0,"$17,000 (May 28)",,,,,,,
3.0,4.0,Houston,USA,USD,-1,FOR_SALE,FOR_SALE,SINGLE_FAMILY,https://photos.zillowstatic.com/fp/892ad673da46407d675a00e4f0d0ff9f-p_e.jpg,False,True,False,False,False,False,False,29.753271,2820.0,-95.5775,479000.0,479000.0,3499.0,False,TX,1522 Haven Lock Dr,420923.0,90595000,,487300.0,77077,28238566,True,acres,0.2937,,,,,,,Sun. 1-3:30pm,True,"[{'open_house_end': 1717972200000, 'open_house_start': 1717963200000}]",,,
